,City ID,City,Latitude,Longitude,Max Temp,Humidity,Cloudiness,Wind Speed,Country,Date
0,2274275,Robertsport,6.7533,-11.3686,78.55,73,95,9.37,LR,1629050049
1,3372707,Ribeira Grande,38.5167,-28.7,77.4,69,40,4.61,PT,1629050050
2,2110227,Butaritari,3.0707,172.7902,82.36,74,11,9.01,KI,1629050051
3,2075265,Busselton,-33.65,115.3333,50.09,82,0,10.25,AU,1629050052
4,4030556,Rikitea,-23.1203,-134.9692,74.61,75,0,12.95,PF,1629050052
5,2017155,Saskylakh,71.9167,114.0833,45.61,72,4,7.05,RU,1629050053
6,3388456,São José da Coroa Grande,-8.8978,-35.1478,77.72,68,79,13.27,BR,1629050054
7,5847411,Kahului,20.8947,-156.47,76.26,90,15,9.55,US,1629050055
8,4946620,Palmer,42.1584,-72.3287,81.77,47,75,3.0,US,1629050055
9,5122534,Jamestown,42.097,-79.2353,74.3,58,1,3.0,US,1629050056
10,1540711,Muravlenko,63.7898,74.523,56.57,71,76,19.17,RU,1629050057
11,3188516,Ulcinj,41.9294,19.2244,91.62,51,0,7.14,ME,1629050058
12,2178174,Albury,-36.0833,146.9167,46.31,90,5,3.44,AU,1629050059
13,556268,Ostrovnoy,68.0531,39.5131,55.24,92,100,5.35,RU,1629050060
14,2206939,Bluff,-46.6,168.3333,49.8,76,100,18.97,NZ,1629050061
15,6170031,Tuktoyaktuk,69.4541,-133.0374,51.8,71,90,10.36,CA,1629050061
16,5848280,Kapaa,22.0752,-159.319,75.47,59,8,1.01,US,1629050062
17,5106841,Albany,42.6001,-73.9662,78.13,52,80,4.0,US,1629050063
18,3348313,Huambo,-12.7761,15.7392,71.11,22,31,2.84,AO,1629050064
19,1106677,Bambous Virieux,-20.3428,57.7575,66.45,88,40,13.8,MU,1629050064
20,2084442,Vanimo,-2.6741,141.3028,76.66,90,54,4.79,PG,1629050065
21,1649150,Bengkulu,-3.8004,102.2655,75.43,89,98,3.67,ID,1629050066
22,3421719,Narsaq,60.9167,-46.05,55.76,84,94,5.48,GL,1629050067
23,1282027,Malé,4.1748,73.5089,84.15,74,40,14.97,MV,1629049801
24,779330,Kautokeino,69.0125,23.0412,47.52,69,80,15.52,NO,1629050068
25,5880054,Barrow,71.2906,-156.7887,37.42,87,90,18.41,US,1629049913
26,6185377,Yellowknife,62.456,-114.3525,59.52,82,75,10.36,CA,1629050069
27,3137469,Sørland,67.667,12.6934,51.87,77,99,21.05,NO,1629050070
28,1261704,Nāttarasankottai,9.8667,78.5667,84.88,60,100,6.64,IN,1629050071
29,2163355,Hobart,-42.8794,147.3294,41.25,89,75,3.0,AU,1629050072
30,725213,Beloslav,43.1833,27.7,74.98,64,0,4.61,BG,1629050073
31,4034551,Faanui,-16.4833,-151.75,78.75,75,12,11.86,PF,1629050073
32,5134295,Rome,43.2128,-75.4557,76.51,49,1,5.75,US,1629049942
33,2071860,Esperance,-33.8667,121.9,48.04,87,0,8.05,AU,1629050075
34,1819729,Hong Kong,22.2855,114.1577,82.45,90,75,5.75,HK,1629049951
35,2112309,Katsuura,35.1333,140.3,69.91,95,100,12.82,JP,1629050076
36,2618795,Klaksvík,62.2266,-6.589,49.12,73,80,14.03,FO,1629050077
37,4032243,Vaini,-21.2,-175.2,66.36,77,20,9.22,TO,1629050078
38,2387890,Bouca,6.5105,18.2733,72.75,92,63,2.15,CF,1629050078
39,4020109,Atuona,-9.8,-139.0333,77.86,71,10,18.28,PF,1629050079
40,945945,Upington,-28.4478,21.2561,66.58,45,0,5.75,ZA,1629050080
41,2112802,Hasaki,35.7333,140.8333,68.4,84,100,15.17,JP,1629050081
42,2450173,Taoudenni,22.6783,-3.9836,112.57,7,42,8.05,ML,1629050081
43,935215,Saint-Philippe,-21.3585,55.7679,67.55,78,69,12.62,RE,1629050082
44,3833367,Ushuaia,-54.8,-68.3,51.46,54,40,14.97,AR,1629050083
45,5855927,Hilo,19.7297,-155.09,77.61,83,75,6.91,US,1629049816
46,3652764,Puerto Ayora,-0.7393,-90.3518,78.76,89,90,5.99,EC,1629050084
47,2181625,Te Anau,-45.4167,167.7167,45.73,88,88,8.7,NZ,1629050085
48,6201424,Mataura,-46.1927,168.8643,49.48,88,74,5.19,NZ,1629050086
49,2501152,Constantine,36.365,6.6147,99.81,14,20,11.5,DZ,1629050086
50,6167865,Toronto,43.7001,-79.4163,77.49,45,1,3.0,CA,1629050085
51,4035715,Avarua,-21.2078,-159.775,71.65,78,20,4.61,CK,1629050088
52,286245,Sur,22.5667,59.5289,87.85,59,28,11.32,OM,1629050089
53,3419842,Sisimiut,66.9395,-53.6735,48.81,82,63,16.93,GL,1629050089
54,3421765,Nanortalik,60.1432,-45.2371,50.22,92,99,8.23,GL,1629050090
55,1275812,Bhuj,23.2667,69.6667,81.99,69,43,14.43,IN,1629050091
56,3443061,Chui,-33.6971,-53.4616,60.84,83,90,2.89,UY,1629050092
57,2028462,Ulaanbaatar,47.9077,106.8832,64.53,59,40,4.47,MN,1629049925
58,964432,Port Alfred,-33.5906,26.891,60.53,79,0,12.5,ZA,1629050093
59,3380290,Sinnamary,5.3833,-52.95,76.6,85,100,9.62,GF,1629050094
60,1714733,Dingle,10.9995,122.6711,76.08,86,78,4.72,PH,1629050094
61,3424607,Tasiilaq,65.6145,-37.6368,50.83,68,80,12.19,GL,1629050095
62,2108857,Gizo Government Station,-8.103,156.8419,81.27,79,64,8.66,SB,1629050096
63,6165406,Thompson,55.7435,-97.8558,77.16,44,40,13.8,CA,1629050097
64,1282256,Hithadhoo,-0.6,73.0833,83.28,68,92,15.86,MV,1629050097
65,1515029,Ulaangom,49.9811,92.0667,60.19,73,100,5.91,MN,1629050098
66,4470244,Havelock,34.8791,-76.9013,90.99,77,93,7.0,US,1629049967
67,546105,Nikolskoye,59.7035,30.7861,61.02,67,93,8.72,RU,1629050099
68,3516171,Barra de Tecoanapa,16.5167,-98.75,86.79,62,32,7.29,MX,1629050100
69,3471451,Arraial do Cabo,-22.9661,-42.0278,73.36,73,40,14.97,BR,1629050101
70,2126199,Cherskiy,68.75,161.3,42.76,87,100,0.83,RU,1629050103
71,3407407,Aquiraz,-3.9014,-38.3911,86.09,63,85,13.04,BR,1629050104
72,3567823,Baraguá,21.6967,-78.6328,90.16,56,85,5.39,CU,1629050104
73,5983720,Iqaluit,63.7506,-68.5145,44.33,93,90,2.3,CA,1629050105
74,3883457,Lebu,-37.6167,-73.65,50.23,91,100,23.53,CL,1629050106
75,2171722,Charters Towers,-20.1,146.2667,62.83,80,100,10.27,AU,1629050107
76,2514651,Los Llanos de Aridane,28.6585,-17.9182,74.95,73,0,14.97,ES,1629050107
77,4031574,Provideniya,64.3833,-173.3,48.0,93,100,5.68,RU,1629050108
78,1705645,Looc,12.2605,121.9926,79.88,78,68,4.52,PH,1629050109
79,2276492,Harper,4.375,-7.7169,78.62,65,53,8.14,LR,1629050110
80,4726521,San Patricio,28.017,-97.5169,93.02,43,26,7.67,US,1629050110
81,6089245,Norman Wells,65.282,-126.8329,51.84,93,90,3.44,CA,1629050111
82,2122090,Pevek,69.7008,170.3133,32.79,100,100,5.35,RU,1629050112
83,2155415,New Norfolk,-42.7826,147.0587,40.91,79,85,3.0,AU,1629050113
84,5563839,Fortuna,40.5982,-124.1573,64.65,90,90,6.91,US,1629050114
85,5866583,Saint Paul Harbor,57.79,-152.4072,52.34,67,67,4.29,US,1629050114
86,358619,Port Said,31.2565,32.2841,84.18,74,0,12.66,EG,1629050115
87,1213855,Sibolga,1.7427,98.7792,76.1,89,100,2.93,ID,1629050116
88,3440777,Rocha,-34.4833,-54.3333,61.66,81,91,3.78,UY,1629050117
89,2401578,Bitam,2.076,11.5007,72.39,88,71,3.8,GA,1629050117
90,1235846,Matara,5.9485,80.5353,78.08,86,98,10.38,LK,1629050118
91,3893629,Coquimbo,-29.9533,-71.3436,58.73,67,75,8.05,CL,1629050051
92,3874787,Punta Arenas,-53.15,-70.9167,42.91,93,90,9.22,CL,1629050119
93,1847947,Shingū,33.7333,135.9833,76.91,94,96,4.59,JP,1629050120
94,2126123,Chokurdakh,70.6333,147.9167,39.61,79,100,9.53,RU,1629050121
95,3938819,Huayucachi,-12.1333,-75.2333,63.7,41,80,6.98,PE,1629050122
96,64814,Bandarbeyla,9.4942,50.8122,82.02,62,36,28.5,SO,1629050123
97,3418910,Upernavik,72.7868,-56.1549,42.6,93,100,19.86,GL,1629050123
98,2381334,Atar,20.5169,-13.0499,106.72,12,49,24.7,MR,1629050124
99,986717,Kruisfontein,-34.0033,24.7314,58.89,74,0,5.59,ZA,1629050125
100,2180815,Tuatapere,-46.1333,167.6833,49.82,78,99,7.96,NZ,1629050126
101,1738050,Marabu,4.4148,114.0089,78.94,94,40,5.75,MY,1629050127
102,2109528,Buala,-8.145,159.5921,79.84,83,83,7.34,SB,1629050128
103,1507390,Dikson,73.5069,80.5464,45.59,100,100,14.7,RU,1629050129
104,5554428,Ketchikan,55.3422,-131.6461,57.43,72,46,4.41,US,1629050129
105,3414079,Olafsvik,64.8945,-23.7142,53.94,87,100,11.01,IS,1629050130
106,6111632,Port Alberni,49.2413,-124.8028,77.16,41,17,1.95,CA,1629050050
107,3353540,Rehoboth,-23.3167,17.0833,66.13,20,0,11.25,NA,1629050131
108,110690,Abhā,18.2164,42.5053,71.42,78,40,5.75,SA,1629050132
109,2123814,Leningradskiy,69.3833,178.4167,32.32,95,100,11.81,RU,1629050133
110,1283285,Jumla,29.2747,82.1838,59.41,91,80,1.21,NP,1629050134
111,3366880,Hermanus,-34.4187,19.2345,50.81,78,29,4.59,ZA,1629050135
112,934322,Mahébourg,-20.4081,57.7,66.49,88,40,13.8,MU,1629050135
113,780687,Berlevåg,70.8578,29.0864,46.08,79,99,14.83,NO,1629050136
114,645765,Muhos,64.808,25.9931,60.58,92,77,0.76,FI,1629050137
115,1623197,Tual,-5.6667,132.75,80.01,84,100,18.28,ID,1629049922
116,4467485,Fuquay-Varina,35.5843,-78.8,90.52,77,98,1.99,US,1629050005
117,5131692,Plattsburgh,44.6995,-73.4529,74.5,41,0,1.99,US,1629050002
118,1015776,Bredasdorp,-34.5322,20.0403,54.72,76,6,2.3,ZA,1629050139
119,6050066,La Ronge,55.1001,-105.2842,75.42,33,20,9.22,CA,1629050140
120,2332453,Lagos,6.5833,3.75,82.72,81,51,7.65,NG,1629050141
121,3466704,Castro,-24.7911,-50.0119,72.39,52,45,6.38,BR,1629050141
122,2358382,Léo,11.1,-2.1,78.89,75,89,6.51,BF,1629050142
123,3374083,Bathsheba,13.2167,-59.5167,88.41,70,40,11.5,BB,1629050143
124,6541759,Mazara del Vallo,37.6641,12.588,88.93,61,0,8.88,IT,1629050144
125,2141305,Fayaoué,-20.65,166.5333,71.38,65,99,20.87,NC,1629050145
126,708366,Horodyshche,49.2849,31.4451,70.9,54,3,3.53,UA,1629050145
127,3625929,Tucupita,9.0622,-62.051,76.96,93,100,3.78,VE,1629050146
128,553766,Kamenka,51.3223,42.7678,68.85,79,100,6.15,RU,1629050147
129,1735106,George Town,5.4112,100.3354,79.9,90,20,0.0,MY,1629050148
130,3193044,Podgorica,42.4411,19.2636,91.18,25,0,1.14,ME,1629050057
131,2524371,Locri,38.2414,16.2623,88.38,66,0,4.27,IT,1629050002
132,1895695,Kushima,31.4583,131.2333,77.63,94,100,3.6,JP,1629050149
133,3420846,Qaqortoq,60.7167,-46.0333,52.2,89,94,6.33,GL,1629050150
134,3444201,Puerto Quijarro,-17.7833,-57.7667,98.67,18,0,3.29,BO,1629050151
135,3382160,Cayenne,4.9333,-52.3333,84.24,79,75,1.99,GF,1629050152
136,3381428,Iracoubo,5.4802,-53.2011,75.54,89,100,8.77,GF,1629050153
137,3831208,Qaanaaq,77.484,-69.3632,38.37,99,100,6.82,GL,1629050153
138,3372964,Lagoa,39.05,-27.9833,71.08,77,29,8.32,PT,1629050154
139,2192362,Christchurch,-43.5333,172.6333,47.48,93,4,4.61,NZ,1629050155
140,924572,Nsanje,-16.92,35.262,71.24,64,100,4.74,MW,1629050156
141,2392505,Nikki,9.9401,3.2108,76.1,83,79,4.41,BJ,1629050156
142,1006984,East London,-33.0153,27.9116,61.74,82,0,9.22,ZA,1629050157
143,1814093,Dali,25.7,100.1833,64.42,94,95,1.54,CN,1629050158
144,3408368,Acaraú,-2.8856,-40.12,85.32,60,43,15.52,BR,1629050159
145,2194098,Ahipara,-35.1667,173.1667,47.23,82,17,1.79,NZ,1629050159
146,286621,Salalah,17.0151,54.0924,75.85,93,92,3.2,OM,1629050160
147,1271151,Goālpāra,26.1667,90.6167,78.39,92,100,0.22,IN,1629050161
148,3115824,Muros,42.7762,-9.0603,81.23,66,0,13.71,ES,1629050162
149,2017705,Poyarkovo,49.6,128.6833,60.94,89,4,0.63,RU,1629050162
150,2092164,Lorengau,-2.0226,147.2712,81.25,80,93,6.29,PG,1629050163
151,2119283,Zyryanka,65.75,150.85,47.19,66,100,5.57,RU,1629050164
152,1184845,Ahmadpur East,29.1431,71.2598,94.8,33,0,4.97,PK,1629050165
153,594064,Švenčionys,55.15,26.1667,59.04,89,70,5.57,LT,1629050166
154,3645532,Ciudad Bolivar,8.1222,-63.5497,76.69,85,100,3.65,VE,1629050166
155,3394841,Minador do Negrão,-9.3053,-36.8647,75.67,67,86,12.93,BR,1629050167
156,3466165,Cidreira,-30.1811,-50.2056,62.17,82,85,7.4,BR,1629050168
157,5367788,Lompoc,34.6391,-120.4579,87.1,85,90,5.99,US,1629050169
158,2077895,Alice Springs,-23.7,133.8833,45.95,42,0,2.3,AU,1629050169
159,2630299,Hofn,64.2539,-15.2082,53.62,87,75,6.91,IS,1629050170
160,2068110,Kununurra,-15.7667,128.7333,82.38,24,75,8.05,AU,1629050171
161,777019,Vardø,70.3705,31.1107,48.4,81,75,13.8,NO,1629050172
162,2012956,Yerbogachën,61.2767,108.0108,57.85,84,96,11.01,RU,1629050173
163,952865,Springs,-26.25,28.4,56.3,80,25,3.06,ZA,1629050174
164,2121385,Severo-Kuril'sk,50.6789,156.125,53.55,92,17,11.86,RU,1629050175
165,3448903,São João da Barra,-21.6403,-41.0511,73.49,76,79,10.27,BR,1629050175
166,1688363,Santa Catalina,9.3337,122.8637,78.19,85,58,2.53,PH,1629050176
167,580783,Arti,56.4234,58.5328,58.03,89,22,1.34,RU,1629050177
168,2122104,Petropavlovsk-Kamchatskiy,53.0452,158.6483,46.99,100,20,6.71,RU,1629050178
169,6620339,Karratha,-20.7377,116.8463,75.02,47,98,12.68,AU,1629050178
170,2063036,Port Lincoln,-34.7333,135.8667,55.96,67,66,11.61,AU,1629050179
171,3369157,Cape Town,-33.9258,18.4232,55.81,71,0,1.01,ZA,1629050111
172,523210,Alpatovo,43.7028,45.2415,75.97,65,99,3.4,RU,1629050180
173,2208248,Kaitangata,-46.2817,169.8464,41.49,87,55,6.13,NZ,1629050181
174,2445553,Dogondoutchi,13.6393,4.0287,90.97,46,77,5.55,NE,1629050182
175,3453060,Pontes e Lacerda,-15.2261,-59.3353,99.0,18,0,1.66,BR,1629050060
176,964420,Port Elizabeth,-33.918,25.5701,61.11,82,0,10.36,ZA,1629049950
177,4031637,Lavrentiya,65.5833,-171.0,43.25,83,84,2.89,RU,1629050184
178,4262318,North Vernon,39.0062,-85.6236,78.04,72,100,8.75,US,1629050185
179,3792394,Mapiripán,2.8892,-72.1256,87.84,54,84,2.06,CO,1629050185
180,5993072,Kitimat,54.0524,-128.6534,61.18,93,100,3.0,CA,1629050186
181,1633419,Padang,-0.9492,100.3543,77.34,88,100,4.45,ID,1629050187
182,2140558,Koumac,-20.5667,164.2833,63.91,79,6,5.91,NC,1629050188
183,3416888,Grindavik,63.8424,-22.4338,54.07,94,75,13.8,IS,1629050188
184,935214,Saint-Pierre,-21.3393,55.4781,67.64,75,75,16.11,RE,1629050189
185,3723779,Jacmel,18.2342,-72.5347,87.58,65,85,6.93,HT,1629050190
186,107304,Buraidah,26.326,43.975,102.65,15,5,11.52,SA,1629050191
187,2191562,Dunedin,-45.8742,170.5036,52.81,45,20,8.01,NZ,1629050021
188,5883166,Alberton,46.8168,-64.0654,75.33,56,0,10.27,CA,1629050192
189,793246,Kolga,59.4867,25.6192,58.87,88,90,13.87,EE,1629050193
190,3175096,Laas,46.6166,10.7002,75.94,76,71,2.53,IT,1629050194
191,2633484,Wrexham,53.0,-3.0,63.86,91,100,11.79,GB,1629050195
192,2178753,Kirakira,-10.4544,161.9205,78.57,88,86,13.0,SB,1629050196
193,6167817,Torbay,47.6666,-52.7314,81.37,76,75,11.5,CA,1629050197
194,2264557,Ponta do Sol,32.6667,-17.1,84.83,56,39,6.2,PT,1629050197
195,3899539,Antofagasta,-23.65,-70.4,65.21,58,21,8.81,CL,1629050198
196,1651810,Airai,-8.9266,125.4092,57.51,90,79,3.74,TL,1629050199
197,1799962,Xuanwu,32.069,118.8138,75.15,97,98,3.2,CN,1629050200
198,3361934,Saldanha,-33.0117,17.9442,57.25,74,22,12.39,ZA,1629050200
199,3577154,Oranjestad,12.524,-70.027,84.15,79,20,11.5,AW,1629050201
200,3899695,Ancud,-41.8697,-73.8203,45.43,92,100,18.81,CL,1629050202
201,1242110,Kalmunai,7.4167,81.8167,81.27,72,100,3.47,LK,1629050203
202,2957773,Altenburg,50.9833,12.45,77.29,56,20,2.3,DE,1629050204
203,467527,Yemtsa,63.0734,40.3329,57.42,89,78,9.78,RU,1629050204
204,1507679,Chulym,55.0997,80.9572,61.7,79,93,6.17,RU,1629050205
205,2176639,Batemans Bay,-35.7167,150.1833,55.2,41,0,11.48,AU,1629050206
206,1735106,George Town,5.4112,100.3354,79.9,90,20,0.0,MY,1629050207
207,4328010,Houma,29.5958,-90.7195,95.0,69,49,8.99,US,1629050177
208,1505260,Ivdel',60.6911,60.4206,59.32,75,67,4.25,RU,1629050208
209,6255012,Flinders,-34.5833,150.8552,58.17,46,0,7.0,AU,1629050209
210,3628473,San Cristobal,7.7669,-72.225,82.58,50,68,7.18,VE,1629050210
211,5110365,Broome,42.2506,-75.833,77.02,56,100,1.99,US,1629050210
212,5870133,Nome,64.5011,-165.4064,48.16,93,100,3.31,US,1629050076
213,1572151,Nha Trang,12.25,109.1833,77.0,87,59,4.16,VN,1629050212
214,5486795,Raton,36.9034,-104.4391,82.06,39,54,1.77,US,1629050212
215,1267758,Karīmganj,24.8667,92.35,77.72,94,100,0.72,IN,1629050213
216,5557293,Sitka,57.0531,-135.33,53.91,81,98,6.11,US,1629050214
217,1920772,Zhoucheng,35.9122,116.3117,72.1,84,82,3.6,CN,1629050215
218,110690,Faya,18.3851,42.4509,71.71,69,87,4.74,SA,1629050216
219,3513563,Kralendijk,12.15,-68.2667,81.81,74,92,10.31,BQ,1629050216
220,3838583,Rosario,-32.9468,-60.6393,70.61,37,0,1.01,AR,1629050217
221,2396853,Omboué,-1.5746,9.2618,76.8,82,86,10.51,GA,1629050218
222,5905393,Bonavista,48.6499,-53.1147,80.6,87,81,12.5,CA,1629050219
223,2013459,Verkh-Usugli,52.7,115.1667,53.33,93,0,0.87,RU,1629050219
224,5924351,Clyde River,70.4692,-68.5914,44.83,87,75,3.44,CA,1629050220
225,5957776,Fredericton,45.9454,-66.6656,74.37,51,1,5.01,CA,1629050221
226,4362001,Mayo,38.8876,-76.5119,85.1,60,99,3.0,US,1629050222
227,5879400,Anchorage,61.2181,-149.9003,56.43,71,1,6.91,US,1629049926
228,94787,Kirkuk,35.4681,44.3922,94.59,14,0,6.64,IQ,1629050223
229,2015306,Tiksi,71.6872,128.8694,38.75,94,72,5.44,RU,1629050224
230,1489209,Troitskoye,52.9821,84.6757,56.68,88,78,1.32,RU,1629050225
231,2392087,Porto-Novo,6.4965,2.6036,82.22,75,90,9.66,BJ,1629050225
232,3356832,Henties Bay,-22.116,14.2845,56.86,92,23,1.61,NA,1629050226
233,2074865,Carnarvon,-24.8667,113.6333,59.07,61,75,6.91,AU,1629050062
234,1513491,Yangi Marg`ilon,40.4272,71.7189,75.92,29,0,9.22,UZ,1629050228
235,57000,Hobyo,5.3505,48.5268,77.5,81,57,26.02,SO,1629050228
236,3893726,Constitución,-35.3333,-72.4167,53.19,79,100,14.81,CL,1629050229
237,3472245,Andrelândia,-21.7397,-44.3092,77.72,34,44,1.72,BR,1629050230
238,5546220,Saint George,37.1041,-113.5841,95.63,30,1,1.01,US,1629050209
239,4787534,Sterling,39.0062,-77.4286,83.86,62,90,1.01,US,1629050133
240,3395458,Maragogi,-9.0122,-35.2225,77.61,69,82,12.26,BR,1629050232
241,932960,Werda,-25.2667,23.2833,65.16,40,0,9.51,BW,1629050232
242,2013918,Ust-Maya,60.4167,134.5333,61.38,90,100,3.18,RU,1629050233
243,2136825,Isangel,-19.55,169.2667,69.24,73,27,15.59,VU,1629050234
244,3405215,Bonfim,3.0833,-59.95,80.51,77,96,5.39,BR,1629050235
245,4763231,Harrisonburg,38.4496,-78.8689,74.44,69,90,0.0,US,1629050119
246,898947,Senanga,-16.1167,23.2667,67.86,27,0,6.2,ZM,1629050236
247,3694112,Paita,-5.0892,-81.1144,77.56,68,42,13.24,PE,1629050237
248,5282297,Bethel,41.3712,-73.414,82.81,55,100,4.29,US,1629050238
249,1067565,Beloha,-25.1667,45.05,61.12,71,2,12.41,MG,1629050238
250,1519422,Semey,50.4111,80.2275,62.31,73,94,6.38,KZ,1629049974
251,3671519,Puerto Carreño,6.189,-67.4859,76.05,86,100,1.39,CO,1629050240
252,5927969,Corner Brook,48.9667,-57.9484,78.96,75,84,7.49,CA,1629050164
253,3687972,Calamar,10.2511,-74.9146,82.35,59,99,3.76,CO,1629050241
254,1279945,Jiuquan,39.7432,98.5174,79.93,28,79,9.98,CN,1629050242
255,1052944,Angoche,-16.2325,39.9086,72.09,76,34,11.7,MZ,1629050243
256,528288,Maykor,59.0059,55.88,64.27,67,100,4.45,RU,1629050243
257,1529376,Korla,41.7597,86.1469,75.67,36,96,4.43,CN,1629050244
258,686090,Asău,46.4333,26.4,75.4,75,67,0.51,RO,1629050245
259,4301317,Morehead,37.2711,-87.1764,80.83,78,90,3.44,US,1629050246
260,2127060,Arman',59.7,150.1667,57.13,94,99,4.05,RU,1629050246
261,1488167,Ust'-Koksa,50.2696,85.6108,50.05,92,52,1.61,RU,1629050247
262,1492499,Shagonar,51.5333,92.8,60.57,87,100,0.96,RU,1629050248
263,3445764,Unaí,-16.3575,-46.9061,89.51,19,1,5.61,BR,1629050249
264,2023333,Kachug,53.9606,105.8817,61.57,96,100,1.92,RU,1629050249
265,1795565,Shenzhen,22.5455,114.0683,82.35,89,96,4.41,CN,1629049977
266,5855051,‘Ewa Beach,21.3156,-158.0072,79.09,75,6,8.66,US,1629050251
267,3654541,Macas,-2.3167,-78.1167,74.95,78,75,1.14,EC,1629050252
268,178443,Wajir,1.7471,40.0573,84.61,41,74,19.98,KE,1629050252
269,3921141,Charagua,-19.8,-63.2167,76.57,22,1,7.18,BO,1629050253
270,2377450,Nouakchott,18.0858,-15.9785,84.13,80,79,13.44,MR,1629050254
271,3897347,Calama,-22.4667,-68.9333,70.29,16,0,23.02,CL,1629050204
272,305681,Kumluca,36.3703,30.2869,83.91,46,0,7.2,TR,1629050255
273,3105522,Bereda,43.2686,-7.5406,70.41,74,0,6.8,ES,1629050256
274,2313084,Mangai,-4.05,19.5333,85.82,39,86,0.78,CD,1629050257
275,2381972,Adrar,20.5022,-10.0711,107.91,7,41,13.09,MR,1629050257
276,1066310,Betioky,-23.7167,44.3833,62.17,58,0,15.03,MG,1629050258
277,2064735,Nhulunbuy,-12.2333,136.7667,75.81,88,40,8.05,AU,1629050259
278,5364271,Laguna,38.421,-121.4238,94.84,47,20,4.61,US,1629050260
279,5379524,Orange,33.7,-117.7675,95.68,69,20,1.01,US,1629049773
280,1831125,Kampong Thom,12.7111,104.8887,74.25,94,83,2.64,KH,1629050261
281,3430863,Mar del Plata,-38.0023,-57.5575,57.22,88,20,5.75,AR,1629050262
282,1855612,Nara,34.6851,135.8049,76.28,90,42,2.64,JP,1629050259
283,2246550,Dagana,16.5165,-15.5068,93.18,44,100,9.98,MR,1629050264
284,3388847,São Félix do Xingu,-6.6447,-51.995,100.58,18,23,3.33,BR,1629050264
285,2374583,Bubaque,11.2833,-15.8333,77.65,84,100,11.74,GW,1629050265
286,1106643,Quatre Cocos,-20.2078,57.7625,66.31,62,96,15.19,MU,1629050266
287,2021093,Kuytun,54.3419,101.5036,56.93,99,100,6.02,RU,1629050267
288,3576994,Cockburn Town,21.4612,-71.1419,85.96,70,40,13.8,TC,1629050267
289,7671223,Kloulklubed,7.0419,134.2556,84.22,73,30,10.11,PW,1629050268
290,3461370,Imbituba,-28.24,-48.6703,69.69,84,81,6.13,BR,1629050269
291,3984571,Santa Catarina de Tepehuanes,25.35,-105.7333,75.67,51,33,6.98,MX,1629050270
292,3397967,Itaituba,-4.2761,-55.9836,93.36,52,40,4.61,BR,1629050270
293,2019135,Nizhniy Kuranakh,58.8353,125.4869,62.38,77,84,4.72,RU,1629050271
294,2070998,Geraldton,-28.7667,114.6,54.01,58,0,5.75,AU,1629050272
295,4032420,Neiafu,-18.65,-173.9833,70.48,68,75,0.0,TO,1629050273
296,3466980,Caravelas,-17.7125,-39.2481,76.14,63,6,7.58,BR,1629050274
297,6100086,Peachland,49.7665,-119.7357,92.16,27,41,13.49,CA,1629050260
298,1490003,Tatarsk,55.219,75.9828,62.24,71,24,7.7,RU,1629050275
299,2063523,Perth,-31.9333,115.8333,61.02,63,0,21.85,AU,1629050103
300,5742974,North Bend,43.4065,-124.2243,64.85,78,72,6.53,US,1629050276
301,1732385,Aborlan,9.4352,118.5492,79.02,83,55,1.7,PH,1629050277
302,3355672,Lüderitz,-26.6481,15.1594,57.06,75,0,7.09,NA,1629050278
303,3904906,Santa Cruz de la Sierra,-17.8,-63.1667,83.66,23,56,5.75,BO,1629050279
304,6113406,Prince Rupert,54.3161,-130.3201,57.29,82,1,8.05,CA,1629050279
305,4500920,Brigantine,39.4101,-74.3646,85.33,64,76,13.65,US,1629050280
306,155274,Mahenge,-8.6833,36.7167,64.54,61,80,3.49,TZ,1629050281
307,4231997,Avera,33.194,-82.5271,87.91,54,100,8.03,US,1629050282
308,344420,Axum,14.1245,38.7244,57.58,90,76,2.3,ET,1629050283
309,6355222,Yulara,-25.2406,130.9889,58.84,31,3,11.5,AU,1629050283
310,4566137,Manatí,18.4275,-66.4921,84.88,82,95,19.3,PR,1629050284
311,5946820,Edson,53.5835,-116.4356,68.14,64,1,4.61,CA,1629050285
312,3894426,Coyhaique,-45.5752,-72.0662,43.41,81,90,4.61,CL,1629050286
313,1863997,Fukuechō,32.6881,128.8419,73.27,96,100,10.02,JP,1629050286
314,2108502,Honiara,-9.4333,159.95,76.59,89,57,5.66,SB,1629050263
315,3347019,Mossamedes,-15.1961,12.1522,66.97,91,6,8.97,AO,1629050288
316,3372760,Praia da Vitória,38.7333,-27.0667,75.45,78,75,6.96,PT,1629050289
317,2643044,Margate,51.3813,1.3862,70.7,64,10,3.0,GB,1629050289
318,3520406,La Reforma,18.1,-91.0167,92.61,47,55,5.21,MX,1629050290
319,2036776,Huadian,42.9633,126.7478,63.91,98,97,3.02,CN,1629050291
320,478050,Ust'-Kulom,61.6864,53.6902,64.99,63,98,7.09,RU,1629050292
321,136702,Dehlorān,32.6941,47.2679,98.4,15,0,9.89,IR,1629050292
322,2980080,Saint-François,46.4154,3.9054,83.64,63,90,13.8,FR,1629050293
323,3374210,São Filipe,14.8961,-24.4956,77.0,79,41,2.01,CV,1629050294
324,1852357,Shimoda,34.6667,138.95,71.85,94,100,12.73,JP,1629050295
325,3580733,Bodden Town,19.2833,-81.25,87.8,73,40,1.99,KY,1629050295
326,5671996,Polson,47.6936,-114.1632,83.71,47,17,3.0,US,1629050296
327,2167426,Emerald,-23.5333,148.1667,62.74,72,90,5.75,AU,1629050297
328,3602066,San José de Río Tinto,14.9333,-85.7,94.57,38,70,4.68,HN,1629050298
329,1855540,Naze,28.3667,129.4833,78.1,86,100,11.07,JP,1629050298
330,3838874,Río Cuarto,-33.1307,-64.3499,67.77,19,0,20.71,AR,1629050189
331,86049,Jalu,29.0331,21.5482,90.73,19,0,9.17,LY,1629050300
332,4036284,Alofi,-19.0595,-169.9187,71.49,78,92,13.8,NU,1629050301
333,1860871,Kadoma,34.7333,135.5833,76.98,85,60,3.71,JP,1629050301
334,2036713,Huanren,41.2647,125.3667,63.07,97,100,0.83,CN,1629050302
335,3529654,Dzilam González,21.2833,-88.9333,94.91,44,75,2.95,MX,1629050303
336,3674702,Miranda,3.2499,-76.2281,75.33,64,89,3.27,CO,1629050304
337,5850554,Makakilo City,21.3469,-158.0858,77.68,75,7,9.89,US,1629050304
338,2185763,Okato,-39.2,173.8833,43.43,81,93,9.24,NZ,1629050305
339,338345,Edd,13.9297,41.6925,89.83,73,21,12.46,ER,1629050306
340,779683,Hammerfest,70.6634,23.6821,47.93,81,75,10.36,NO,1629050307
341,2537881,Safi,32.2994,-9.2372,79.47,60,7,23.62,MA,1629050057
342,2173911,Broken Hill,-31.95,141.4333,44.31,57,0,4.61,AU,1629050308
343,4853078,Creston,41.0586,-94.3614,81.54,69,20,8.05,US,1629050309
344,6166142,Thunder Bay,48.4001,-89.3168,83.55,55,20,8.05,CA,1629050309
345,1259385,Port Blair,11.6667,92.75,79.59,87,100,16.2,IN,1629050310
346,2027316,Ayan,56.45,138.1667,63.57,80,98,3.94,RU,1629050311
347,6541176,Agropoli,40.3469,14.9966,87.91,74,0,2.17,IT,1629050312
348,1529660,Aksu,41.1231,80.2644,68.85,45,44,6.38,CN,1629050313
349,2156643,Mount Gambier,-37.8333,140.7667,49.91,93,75,10.36,AU,1629050314
350,5905348,Bon Accord,53.8335,-113.4187,79.79,55,1,6.91,CA,1629050314
351,4068590,Huntsville,34.7304,-86.5861,86.2,77,90,1.99,US,1629050209
352,3558315,Gibara,21.1097,-76.1317,90.14,58,45,12.08,CU,1629050316
353,3867427,Mayor Pablo Lagerenza,-19.9309,-60.7718,88.81,17,3,4.52,PY,1629050316
354,1071296,Antalaha,-14.9003,50.2788,69.22,72,2,10.98,MG,1629050317
355,1153035,Kathu,7.9178,98.3332,75.02,83,100,7.18,TH,1629050318
356,902620,Mwinilunga,-11.7358,24.4293,67.32,25,0,5.5,ZM,1629050319
357,5606401,Sandpoint,48.2766,-116.5533,86.41,34,1,8.05,US,1629050319
358,4031742,Egvekinot,66.3167,-179.1667,42.58,67,15,5.57,RU,1629050320
359,2146219,Hervey Bay,-25.2986,152.8535,62.04,80,30,2.53,AU,1629050321
360,2126682,Bilibino,68.0546,166.4372,40.69,89,100,3.71,RU,1629050322
361,3404558,Cabedelo,-6.9811,-34.8339,81.27,73,54,18.07,BR,1629050323
362,2253354,Dakar,14.6937,-17.4441,82.53,83,75,6.91,SN,1629050323
363,2022572,Khatanga,71.9667,102.5,55.83,52,100,11.61,RU,1629050324
364,2640377,Penzance,50.1186,-5.5371,62.76,91,74,17.0,GB,1629050325
365,2172880,Byron Bay,-28.65,153.6167,59.88,72,81,5.14,AU,1629050326
366,6096551,Pangnirtung,66.1451,-65.7125,48.2,81,75,12.66,CA,1629050326
367,605155,Kiruna,67.8557,20.2251,56.32,67,40,8.05,SE,1629050327
368,2729907,Longyearbyen,78.2186,15.6401,39.04,75,75,19.57,SJ,1629050328
369,2445704,Diffa,13.3154,12.6113,84.29,61,76,7.96,NE,1629050329
370,3164387,Vieste,41.8825,16.175,84.29,54,0,4.9,IT,1629050329
371,1734199,Tawao,4.2498,117.8871,75.33,87,99,4.43,MY,1629050330
372,3870243,Taltal,-25.4,-70.4833,61.25,69,1,7.67,CL,1629050331
373,1806299,Jiangmen,22.5833,113.0833,80.92,93,100,3.0,CN,1629050332
374,4439506,Ocean Springs,30.4113,-88.8278,94.39,68,10,7.99,US,1629050332
375,3573374,The Valley,18.217,-63.0578,86.14,79,75,19.57,AI,1629050333
376,2036933,Helong,42.5397,128.9972,58.78,98,99,1.43,CN,1629050334
377,2516452,Inca,39.7211,2.9109,94.42,24,9,5.75,ES,1629050335
378,2427336,Moussoro,13.6408,16.4901,87.44,50,81,7.36,TD,1629050335
379,4021858,Guerrero Negro,27.9769,-114.0611,78.78,60,50,13.31,MX,1629050336
380,3608828,Iralaya,15.0,-83.2333,85.69,62,24,8.03,HN,1629050337
381,2377457,Nouadhibou,20.931,-17.0347,78.78,73,0,17.27,MR,1629050338
382,2013279,Vostok,46.4856,135.8833,54.37,94,67,3.2,RU,1629050338
383,6180550,Whitehorse,60.7161,-135.0538,44.02,93,90,5.75,CA,1629050310
384,2225457,Wala,4.578,12.3154,70.86,92,99,1.81,CM,1629050340
385,3377301,Mabaruma,8.2,-59.7833,82.53,82,38,2.71,GY,1629050341
386,3464724,Diamantino,-14.4086,-56.4461,98.96,17,3,2.89,BR,1629050341
387,3939168,Huarmey,-10.0681,-78.1522,69.04,69,69,11.56,PE,1629050342
388,339551,Dejen,10.1667,38.1333,54.46,88,96,2.48,ET,1629050343
389,933995,Souillac,-20.5167,57.5167,66.58,88,40,13.8,MU,1629050344
390,1788450,Xinzhou,38.4092,112.7333,64.22,90,47,2.17,CN,1629050345
391,4013039,Concepción del Oro,24.6333,-101.4167,72.46,42,6,4.07,MX,1629050346
392,5506956,Las Vegas,36.175,-115.1372,100.18,34,1,3.0,US,1629050189
393,2137773,Vao,-22.6667,167.4833,68.07,70,70,20.76,NC,1629050347
394,293842,Kiryat Gat,31.61,34.7642,83.08,100,0,7.49,IL,1629050348
395,3432043,La Plata,-34.9215,-57.9545,58.91,77,1,2.59,AR,1629050160
396,3430545,Morón,-34.6534,-58.6198,64.0,74,4,4.0,AR,1629050349
397,533933,Lovozero,68.005,35.0117,54.54,92,59,8.19,RU,1629050348
398,3435038,Dolores,-36.3132,-57.6792,60.93,58,6,1.81,AR,1629050351
399,4033375,Tevaitoa,-16.7833,-151.5,78.62,74,19,12.15,PF,1629050352
400,264748,Apollonia,36.9716,24.7231,76.91,67,0,20.47,GR,1629050352
401,53654,Mogadishu,2.0371,45.3438,76.69,85,53,18.25,SO,1629050353
402,5861897,Fairbanks,64.8378,-147.7164,50.59,93,90,1.01,US,1629050354
403,5044290,Saint Anthony,45.0205,-93.218,85.71,37,1,1.99,US,1629050195
404,155921,Liwale,-9.7667,37.9333,76.62,42,78,5.08,TZ,1629050355
405,2033739,Xinglongshan,43.9561,125.4661,62.35,94,31,0.0,CN,1629050356
406,3932145,Pisco,-13.7,-76.2167,65.01,82,75,6.91,PE,1629050357
407,499025,Samoded,63.6083,40.5111,57.49,92,82,10.87,RU,1629050358
408,3034366,Beauchamps,50.012,1.5176,67.39,79,85,11.86,FR,1629050358
409,2019951,Mirny,62.5353,113.9611,56.93,98,99,6.49,RU,1629050359
410,2523825,Petilia Policastro,39.1139,16.7855,79.29,51,2,6.08,IT,1629050360
411,6542044,Nettuno,41.4826,12.679,92.57,62,0,8.39,IT,1629050361
412,2013465,Verkhoyansk,67.5447,133.385,45.25,86,100,3.15,RU,1629050362
413,509649,Pichayevo,53.2363,42.2032,69.91,62,66,2.73,RU,1629050362
414,2035836,Manzhouli,49.6,117.4333,62.76,78,30,3.69,CN,1629050363
415,2399001,Mayumba,-3.432,10.6554,74.35,89,92,8.28,GA,1629050364
416,477940,Ust-Tsilma,65.441,52.1498,59.47,95,100,5.64,RU,1629050365
417,660073,Eurajoki,61.2,21.7333,60.82,88,94,6.85,FI,1629050365
418,1497497,Nizhniy Ingash,56.2,96.53,52.3,86,79,4.63,RU,1629050366
419,2335614,Kagoro,9.6,8.3833,70.25,94,100,2.06,NG,1629050367
420,1567069,Tan An,10.5333,106.4167,80.62,91,94,3.02,VN,1629050368
421,2664855,Värnamo,57.186,14.04,62.06,70,97,8.95,SE,1629050368
422,3455362,Palmeiras de Goiás,-16.805,-49.9258,92.84,16,1,3.69,BR,1629050369
423,6111862,Port Hardy,50.6996,-127.4199,64.58,88,90,0.0,CA,1629050370
424,2128975,Nemuro,43.3236,145.575,55.45,86,0,7.18,JP,1629050371
425,889191,Karoi,-16.8099,29.6925,60.24,62,6,9.84,ZW,1629050371
426,2016216,Sosnovo-Ozerskoye,52.5249,111.5418,53.96,86,7,3.38,RU,1629050372
427,6137462,Saint-Augustin,51.226,-58.6502,67.91,90,100,4.23,CA,1629050288
428,3664659,Carauari,-4.8828,-66.8958,91.44,41,59,2.44,BR,1629050280
429,5052916,Willmar,45.1219,-95.0433,83.88,34,1,10.36,US,1629050374
430,3385899,Tutóia,-2.7619,-42.2744,87.78,65,45,8.12,BR,1629050375
431,2449893,Tessalit,20.1986,1.0114,102.96,14,35,2.3,ML,1629050376
432,3393536,Olinda,-8.0089,-34.8553,76.73,65,40,16.11,BR,1629050376
433,3579642,Bouillante,16.1304,-61.7692,87.03,70,92,12.93,GP,1629050377
434,2021188,Kurumkan,54.3,110.3,62.87,69,44,0.92,RU,1629050378
435,3533462,Acapulco de Juárez,16.8634,-99.8901,86.88,66,55,5.97,MX,1629050127
436,1732711,Pontian Kecil,1.4801,103.3899,77.13,86,84,3.0,MY,1629050379
437,1272629,Digboi,27.3833,95.6333,75.87,97,100,1.99,IN,1629050380
438,5786882,Bellevue,47.6104,-122.2007,80.51,70,40,4.0,US,1629050088
439,1490036,Tashtyp,52.7939,89.8983,55.89,95,96,2.39,RU,1629050381
440,2636790,Stornoway,58.2093,-6.3865,57.16,82,20,13.8,GB,1629050281
441,1628884,Sampit,-2.5333,112.95,74.07,99,65,2.77,ID,1629050383
442,2629833,Husavik,66.0449,-17.3389,62.51,74,78,8.59,IS,1629050384
443,1861393,Ishikawa,26.4233,127.8214,80.56,84,8,7.14,JP,1629050385
444,1214488,Meulaboh,4.1363,96.1285,76.12,88,100,7.05,ID,1629050385
445,2028164,Deputatsky,69.3,139.9,37.31,91,100,3.31,RU,1629050386
446,3395981,Maceió,-9.6658,-35.7353,80.04,61,75,12.66,BR,1629050268
447,714772,Tiszafüred,47.6167,20.7667,89.58,61,18,18.16,HU,1629050387
448,1272864,Dhārchula,29.85,80.5333,69.49,89,34,3.42,IN,1629050388
449,6171633,Ucluelet,48.9329,-125.5528,59.31,79,95,5.03,CA,1629050343
450,1803331,Linxia Chengguanzhen,35.6003,103.2064,62.15,79,96,2.24,CN,1629050390
451,5954718,Flin Flon,54.7682,-101.865,78.64,38,20,11.5,CA,1629050390
452,347634,Ţahţā,26.7693,31.5021,98.92,16,0,12.41,EG,1629050391
453,2160735,Lakes Entrance,-37.8811,147.981,54.18,60,62,20.94,AU,1629050392
454,1277874,Bāgli,22.65,76.35,73.71,84,82,6.26,IN,1629050393
455,2098329,Daru,-9.0763,143.2092,76.35,88,99,16.6,PG,1629050393
456,3530886,Juxtlahuaca,17.4294,-99.1467,84.34,59,38,0.87,MX,1629050394
457,2514301,Mahon,39.8885,4.2658,86.56,54,0,8.05,ES,1629050395
458,5563397,Eureka,40.8021,-124.1637,64.92,84,68,5.99,US,1629050396
459,325361,Adana Province,36.985,35.2881,86.52,52,0,0.0,TR,1629050136
460,4047434,Russell,32.3502,-85.1999,87.96,55,90,6.91,US,1629050397
461,1783621,Zunyi,27.6867,106.9072,66.74,96,97,3.67,CN,1629050398
462,1058381,Morondava,-20.2833,44.2833,71.46,75,0,12.12,MG,1629050399
463,2097418,Finschhafen,-6.6024,147.8681,77.47,83,39,8.66,PG,1629050399
464,3423146,Ilulissat,69.2167,-51.1,43.74,87,100,4.41,GL,1629050400
465,1642773,Japura,-0.3167,102.35,73.49,98,100,3.06,ID,1629050401
466,3139597,Sistranda,63.7256,8.834,57.16,83,100,6.22,NO,1629050403
467,3923570,Atocha,-20.9333,-66.2333,51.69,10,1,23.31,BO,1629050404
468,3372472,Vila Franca do Campo,37.7167,-25.4333,77.41,84,46,10.13,PT,1629050405
469,3901547,Villamontes,-21.25,-63.5,79.61,19,3,4.56,BO,1629050405
470,3629710,Puerto Ayacucho,5.6639,-67.6236,74.35,94,100,1.48,VE,1629050406
471,2319257,Wamba,8.9333,8.6,74.21,93,100,1.88,NG,1629050408
472,3984997,San Quintín,30.4833,-115.95,75.79,71,18,11.12,MX,1629050410
473,1489853,Tazovsky,67.4667,78.7,48.09,93,99,18.57,RU,1629050412
474,1726449,Basco,20.4487,121.9702,83.84,76,53,7.78,PH,1629050413
475,1280849,Kashgar,39.4547,75.9797,69.75,35,92,8.63,CN,1629050414
476,1856392,Muroto-misakicho,33.2833,134.15,77.86,79,100,7.0,JP,1629050415
477,2094342,Kavieng,-2.5744,150.7967,81.45,79,99,10.76,PG,1629050416
478,2312895,Mbandaka,0.0487,18.2603,79.56,58,41,1.92,CD,1629050417
479,3547867,Manzanillo,20.3433,-77.1167,89.42,55,92,6.51,CU,1629050418
480,1794209,Simao,22.7886,100.9748,67.12,100,100,2.66,CN,1629050419
481,3445026,Vila Velha,-20.3297,-40.2925,75.15,73,40,14.97,BR,1629050285
482,552006,Kashary,49.04,41.0056,69.39,83,99,8.41,RU,1629050421
483,5866063,Kenai,60.5544,-151.2583,55.15,72,68,7.16,US,1629050422
484,2120612,Tigil',57.8,158.6667,50.9,93,72,6.98,RU,1629050422
485,1511276,Atagay,55.1033,99.3875,58.5,83,100,2.44,RU,1629050424
486,2090021,Namatanai,-3.6667,152.4333,78.75,84,82,4.9,PG,1629050424
487,1254046,Tura,25.5198,90.2201,74.35,95,100,4.12,IN,1629050425
488,1062553,Mahanoro,-19.9,48.8,62.89,82,16,7.05,MG,1629050426
489,2035669,Lianhe,47.1333,129.2667,60.6,93,63,1.03,CN,1629050427
490,3530103,San Miguel de Cozumel,20.5083,-86.9458,87.01,82,20,5.01,MX,1629050428
491,5435464,Pueblo,38.2545,-104.6091,94.01,29,34,1.01,US,1629050205
492,582447,Almaznyy,48.0448,40.045,69.94,73,100,1.43,RU,1629050429
493,4791259,Virginia Beach,36.8529,-75.978,88.05,72,73,1.99,US,1629050233
494,6067472,Marystown,47.1666,-55.1483,71.96,84,79,9.48,CA,1629050431
495,2025256,Chumikan,54.7183,135.315,63.16,80,89,12.08,RU,1629050432
496,3420768,Qasigiannguit,68.8193,-51.1922,48.45,84,100,5.99,GL,1629050432
497,2662689,Visby,57.6409,18.296,66.85,72,0,11.5,SE,1629050433
498,5343303,Dixon,38.4455,-121.8233,96.84,25,16,3.15,US,1629050176
499,1264976,Leh,34.1667,77.5833,51.98,59,55,7.02,IN,1629050435
500,4033077,Vaitape,-16.5167,-151.75,78.75,75,12,11.81,PF,1629050436
501,1015621,Brits,-25.6347,27.7802,61.81,63,0,5.82,ZA,1629050418
502,3566356,Caibarién,22.5206,-79.4669,85.82,70,93,9.37,CU,1629050437
503,608271,Shubarkuduk,49.1447,56.4872,79.99,17,6,5.86,KZ,1629050438
504,3691954,Sechura,-5.5569,-80.8222,75.38,55,48,10.04,PE,1629050439
505,3623656,Golfito,8.639,-83.166,81.52,81,97,4.52,CR,1629050440
506,2126785,Belaya Gora,68.5333,146.4167,42.04,70,100,7.07,RU,1629050441
507,1649378,Tambun,-6.2641,107.0712,80.49,75,98,5.03,ID,1629050442
508,2123628,Magadan,59.5667,150.8,55.89,96,99,4.5,RU,1629050443
509,3985710,Cabo San Lucas,22.8909,-109.9124,96.51,62,3,6.71,MX,1629050444
510,1859964,Kaseda-shirakame,31.4167,130.3167,77.34,87,97,9.35,JP,1629050445
511,2025241,Churapcha,62.0025,132.4325,61.77,93,99,4.54,RU,1629050446
512,2961459,Skibbereen,51.55,-9.2667,64.2,70,42,14.9,IE,1629050447
513,2033536,Yakeshi,49.2833,120.7333,56.14,81,15,2.3,CN,1629050448
514,1272201,Dūngarpur,23.8333,73.7167,80.11,65,34,5.75,IN,1629050449
515,3354077,Opuwo,-18.0607,13.84,70.47,36,0,8.08,NA,1629050451
516,2109701,Auki,-8.7676,160.7034,76.6,90,86,5.1,SB,1629050452
517,3163146,Andenes,69.3143,16.1194,49.98,87,90,26.46,NO,1629050453
518,5313667,Sedona,34.8697,-111.761,89.4,57,1,1.99,US,1629050453
519,2450849,Sokolo,14.7328,-6.1219,82.65,65,100,7.45,ML,1629050454
520,3421193,Paamiut,61.994,-49.6678,45.77,99,100,5.59,GL,1629050455
521,1700933,Marihatag,8.7936,126.2969,77.88,84,53,4.0,PH,1629050456
522,3948448,Acolla,-11.7319,-75.5463,60.17,40,71,8.55,PE,1629050457
523,1812101,Dongying,37.4564,118.4856,73.2,74,87,3.11,CN,1629050458
524,2122894,Nevel'sk,46.6733,141.8633,51.82,90,92,4.68,RU,1629050459
525,933102,Sekoma,-24.4,23.8833,63.81,43,0,8.97,BW,1629050460
526,1529569,Changji,44.0167,87.3167,66.99,77,0,2.24,CN,1629050461
527,3373329,Arrifes,37.7667,-25.7,75.45,83,40,8.05,PT,1629050462
528,523392,Naryan-Mar,67.6713,53.087,56.52,66,90,13.71,RU,1629050463
529,245338,Am Timan,11.0297,20.2827,77.02,82,91,2.84,TD,1629050463
530,4589446,North Myrtle Beach,33.816,-78.68,92.08,79,100,1.99,US,1629050464
531,1795632,Shenjiamen,29.9576,122.298,77.83,95,100,10.2,CN,1629050465
532,1797117,Rongcheng,30.634,117.8517,73.0,98,89,1.57,CN,1629050466
533,2641598,Newport,51.5877,-2.9984,68.38,83,99,9.6,GB,1629050467
534,1056899,Sambava,-14.2667,50.1667,69.93,74,2,16.64,MG,1629050468
535,292968,Abu Dhabi,24.4667,54.3667,93.13,72,22,8.16,AE,1629050468
536,1805935,Jiazi,22.8779,116.067,80.74,88,11,6.17,CN,1629050469
537,514739,Orshanka,56.9161,47.8933,64.8,58,46,5.7,RU,1629050470
538,4636045,Lebanon,36.2081,-86.2911,85.89,75,75,4.61,US,1629050159
539,2454934,Kolondiéba,11.0882,-6.8926,74.8,92,99,5.95,ML,1629050471
540,2297810,Mumford,5.2618,-0.759,76.68,79,17,11.36,GH,1629050472
541,3391889,Pitimbu,-7.4706,-34.8086,78.21,70,83,15.99,BR,1629050473
542,1855342,Nishihara,26.1842,127.7558,79.88,89,40,8.05,JP,1629050473
543,3459855,Joanópolis,-22.9303,-46.2756,81.03,26,21,8.95,BR,1629050474
544,578467,Bazarnye Mataki,54.8833,49.9333,70.0,53,63,4.03,RU,1629050475
545,696643,Poltava,49.5937,34.5407,72.66,34,77,5.01,UA,1629050476
546,1185095,Teknāf,20.8624,92.3058,79.83,90,100,8.95,BD,1629050476
547,1607617,Phon,15.816,102.5998,74.79,93,100,5.75,TH,1629050477
548,3671450,Inírida,3.8653,-67.9239,83.88,72,88,1.54,CO,1629050478
549,2304548,Anloga,5.7947,0.8973,77.36,79,20,13.2,GH,1629050479
